record,resolution,duration,archive,lat,lon,infMat,var,interp,season,start_year,end_year,site,pub
CO17XISC01A,0.993006993,142,Coral,19.395,110.7531,surface seawater,d18O,Temperature,annual,167,309,Hainan Island,"Xiao, H., Deng, W., Chen, X., Wei, G., Zeng, T. and Zhao, J.: Wet and cold climate conditions recorded by coral geochemical proxies during the beginning of the first millennium CE in the northern South China Sea, Journal of Asian Earth Sciences, 135, 25–34, doi:10.1016/j.jseaes.2016.12.012, 2017."
CO13COXM,0.083187614,45.67,Coral,1.52,-157.24,surface seawater,d18O,Temperature,subannual,388.62,434.29,"Kiritimati Island, Line Islands, Kiribati","Cobb, K. M., Westphal, N., Sayani, H. R., Watson, J. T., Di Lorenzo, E., Cheng, H., Edwards, R. L. and Charles, C. D.: Highly Variable El Nino–Southern Oscillation Throughout the Holocene, Science, 339(6115), 67–70, doi:10.1126/science.1228246, 2013."
CO03COPM,0.206291442,1070.24,Coral,5.87,-162.13,surface seawater,d18O,Temperature,subannual,928.13,1998.37,Palmyra (composite),"Cobb, K. M., Charles, C. D., Cheng, H. and Edwards, R. L.: El Nino/Southern Oscillation and tropical Pacific climate during the last millennium, Nature, 424(6946), 271–276, doi:10.1038/nature01779, 2003."
CO17DESC02A,0.96,24,Coral,19.301,110.662,surface seawater,d18O,EffectiveMoisture,annual,1063,1087,Hainan Island,"Deng, W., Liu, X., Chen, X., Wei, G., Zeng, T., Xie, L. and Zhao, J.: A comparison of the climates of the Medieval Climate Anomaly, Little Ice Age, and Current Warm Period reconstructed using coral records from the northern South China Sea, Journal of Geophysical Research: Oceans, 122(1), 264–275, doi:10.1002/2016jc012458, 2017."
CO17DESC01A,0.992125984,126,Coral,19.308,110.667,surface seawater,d18O,EffectiveMoisture,annual,1129,1255,Hainan Island,"Deng, W., Liu, X., Chen, X., Wei, G., Zeng, T., Xie, L. and Zhao, J.: A comparison of the climates of the Medieval Climate Anomaly, Little Ice Age, and Current Warm Period reconstructed using coral records from the northern South China Sea, Journal of Geophysical Research: Oceans, 122(1), 264–275, doi:10.1002/2016jc012458, 2017."
CO13HENG,0.092307692,166.8,Coral,-10.6907,152.8115,surface seawater,d18O,EffectiveMoisture,subannual,1411.625,1578.425,"Misima Island, Papua New Guinea","Hereid, K. A., Quinn, T. M., Taylor, F. W., Shen, C.-C., Lawrence Edwards, R. and Cheng, H.: Coral record of reduced El Nino activity in the early 15th to middle 17th centuries, Geology, 41(1), 51–54, doi:10.1130/g33510.1, 2012."
CO02KUBE,0.083251714,85,Coral,32.47,-64.7,surface seawater,d18O,Temperature,subannual,1519.21,1604.21,"North East Breakers, Bermuda","Kuhnert, H., Paetzold, J., Schnetger, B. and Wefer, G.: Sea-surface temperature variability in the 16th century at Bermuda inferred from coral records, Palaeogeography, Palaeoclimatology, Palaeoecology, 179(3-4), 159–171, doi:10.1016/s0031-0182(01)00410-2, 2002."
CO13HENG,0.080809222,89.375,Coral,-10.6907,152.8115,surface seawater,d18O,EffectiveMoisture,subannual,1555.375,1644.75,"Misima Island, Papua New Guinea","Hereid, K. A., Quinn, T. M., Taylor, F. W., Shen, C.-C., Lawrence Edwards, R. and Cheng, H.: Coral record of reduced El Nino activity in the early 15th to middle 17th centuries, Geology, 41(1), 51–54, doi:10.1130/g33510.1, 2012."
CO94DUUR,1.002680965,374,Coral,-0.4084,-91.234,surface seawater,d18O,Temperature,subannual,1607,1981,"Urvina Bay, Galapagos Islands","Dunbar, R. B., Wellington, G. M., Colgan, M. W. and Glynn, P. W.: Eastern Pacific sea surface temperature since 1600 A.D.: The d18O record of climate variability in Galapagos Corals, Paleoceanography, 9(2), 291–315, doi:10.1029/93pa03501, 1994."
CO06LIFI,0.997402597,384,Coral,-16.8167,179.2333,surface seawater,d18O,Temperature,annual,1617.5,2001.5,"Savusavu Bay, Fiji","Linsley, B. K., Kaplan, A., Gouriou, Y., Salinger, J., deMenocal, P. B., Wellington, G. M. and Howe, S. S.: Tracking the extent of the South Pacific Convergence Zone since the early 1600s, Geochemistry, Geophysics, Geosystems, 7(5), n/a–n/a, doi:10.1029/2005gc001115, 2006."
CO06DATZ,0.206662088,376.125,Coral,-8.0167,39.5,surface seawater,d18O,Temperature,subannual,1622,1998.125,"Mafia Archipelago, Tanzania","Damassa, T. D., Cole, J. E., Barnett, H. R., Ault, T. R. and McClanahan, T. R.: Enhanced multidecadal climate variability in the seventeenth century from coral isotope records in the western Indian Ocean, Paleoceanography, 21(2), n/a–n/a, doi:10.1029/2005pa001217, 2006."
CO17DESC03A,0.966666667,29,Coral,19.287,110.656,surface seawater,d18O,EffectiveMoisture,annual,1628,1657,Hainan Island,"Deng, W., Liu, X., Chen, X., Wei, G., Zeng, T., Xie, L. and Zhao, J.: A comparison of the climates of the Medieval Climate Anomaly, Little Ice Age, and Current Warm Period reconstructed using coral records from the northern South China Sea, Journal of Geophysical Research: Oceans, 122(1), 264–275, doi:10.1002/2016jc012458, 2017."
CO99DRGB,0.997109827,345,Coral,-22.1,153,surface seawater,d18O,Temperature,annual,1638.3,1983.3,"Abraham Reef, Great Barrier Reef, Australia","Druffel, E. R. M. and Griffin, S.: Variability of surface ocean radiocarbon and stable isotopes in the southwestern Pacific, Journal of Geophysical Research: Oceans, 104(C10), 23607–23613, doi:10.1029/1999jc900212, 1999."
CO98QUNC,0.249813572,335,Coral,-22.48,166.45,surface seawater,d18O,Temperature,subannual,1657.75,1992.75,"Amedee Island, New Caledonia","Quinn, T. M., Crowley, T. J., Taylor, F. W., Henin, C., Joannot, P. and Join, Y.: A multicentury stable isotope record from a New Caledonia coral: Interannual and decadal sea surface temperature variability in the southwest Pacific since 1657 A.D, Paleoceanography, 13(4), 412–426, doi:10.1029/98pa00401, 1998."
CO04ZIMG,0.166584036,336,Coral,-23.15,43.58,surface seawater,d18O,Temperature,subannual,1659.625,1995.625,"Ifaty Reef, SW Madagascar","Zinke, J., Dullo, W.-C., Heiss, G. A. and Eisenhauer, A.: ENSO and Indian Ocean subtropical dipole variability is recorded in a coral record off southwest Madagascar for the period 1659 to 1995, Earth and Planetary Science Letters, 228(1-2), 177–194, doi:10.1016/j.epsl.2004.09.028, 2004."
CO17DESC04A,0.985915493,70,Coral,19.3198,110.692,surface seawater,d18O,EffectiveMoisture,annual,1702,1772,Hainan Island,"Deng, W., Liu, X., Chen, X., Wei, G., Zeng, T., Xie, L. and Zhao, J.: A comparison of the climates of the Medieval Climate Anomaly, Little Ice Age, and Current Warm Period reconstructed using coral records from the northern South China Sea, Journal of Geophysical Research: Oceans, 122(1), 264–275, doi:10.1002/2016jc012458, 2017."
CO94LISE,0.101634227,276.75,Coral,7.98,-82.05,surface seawater,d18O,EffectiveMoisture,subannual,1707.75,1984.5,"Secas Island, Gulf of Chiriqui, Panama","Linsley, B. K., Dunbar, R. B., Wellington, G. M. and Mucciarone, D. A.: A coral-based reconstruction of Intertropical Convergence Zone variability over Central America since 1707, Journal of Geophysical Research, 99(C5), 9977, doi:10.1029/94jc00360, 1994."
CO07CAFR,4.912280702,280,Coral,-17.73,148.43,surface seawater,d18O,EffectiveMoisture,annual,1708,1988,Coral Sea,"Calvo, E., Marshall, J. F., Pelejero, C., McCulloch, M. T., Gagan, M. K. and Lough, J. M.: Interdecadal climate variability in the Coral Sea since 1708 A.D., Palaeogeography, Palaeoclimatology, Palaeoecology, 248(1-2), 190–201, doi:10.1016/j.palaeo.2006.12.003, 2007."
CO04LIRA,0.124944496,270.13,Coral,-21.2378,-159.8278,surface seawater,d18O,Temperature,subannual,1726.78,1996.91,"Rarotonga, Cook Islands, South Pacific","Wellington, G. M., Schrag, D. P., Ren, L., Salinger, M. J., Tudhope, A. W. and Linsley, B. K.: Geochemical evidence from corals for changes in the amplitude and spatial pattern of South Pacific interdecadal climate variability over the last 300 years, Climate Dynamics, 22(1), 1–11, doi:10.1007/s00382-003-0364-y, 2004."
CO08KIPR,0.996062992,253,Coral,17.933,-67.001,surface seawater,d18O,Temperature,annual,1751,2004,"Turrumote Reef, La Parguera, Puerto Rico","Kilbourne, K. H., Quinn, T. M., Webb, R., Guilderson, T., Nyberg, J. and Winter, A.: Paleoclimate proxy perspective on Caribbean climate since the year 1751: Evidence of cooler temperatures and multidecadal variability, Paleoceanography, 23(3), n/a–n/a, doi:10.1029/2008pa001598, 2008."
CO96SWBB,0.995762712,235,Coral,25.3903,-80.1715,surface seawater,d18O,EffectiveMoisture,subannual,1751,1986,"Alinas Reef, Biscayne National Park, Florida","Swart, P. K., Dodge, R. E. and Hudson, H. J.: A 240-Year Stable Oxygen and Carbon Isotopic Record in a Coral from South Florida: Implications for the Prediction of Precipitation in Southern Florida, PALAIOS, 11(4), 362, doi:10.2307/3515246, 1996."
CO00FERA,0.166553134,244.5,Coral,27.85,34.32,surface seawater,d18O,Temperature,subannual,1751.083,1995.583,"Ras Umm Sidd, Red Sea","Felis, T., Paetzold, J., Loya, Y., Fine, M., Nawar, A. H. and Wefer, G.: A coral oxygen isotope record from the northern Red Sea documenting NAO, ENSO, and North Pacific teleconnections on Middle East climate variability since the year 1750, Paleoceanography, 15(6), 679–694, doi:10.1029/1999pa000477, 2000."
CO05BAFI,0.995575221,225,Coral,-16.8167,179.2333,surface seawater,d18O,Temperature,annual,1776,2001,"Savusavu Bay, Fiji","Bagnato, S., Linsley, B. K., Howe, S. S., Wellington, G. M. and Salinger, J.: Coral oxygen isotope records of interdecadal climate variations in the South Pacific Convergence Zone region, Geochemistry, Geophysics, Geosystems, 6(6), doi:10.1029/2004gc000879, 2005."
CO04LIFI,0.99537037,215,Coral,-16.8167,179.2333,surface seawater,d18O,Temperature,subannual,1781.5,1996.5,Savusavu Bay,"Wellington, G. M., Schrag, D. P., Ren, L., Salinger, M. J., Tudhope, A. W. and Linsley, B. K.: Geochemical evidence from corals for changes in the amplitude and spatial pattern of South Pacific interdecadal climate variability over the last 300 years, Climate Dynamics, 22(1), 1–11, doi:10.1007/s00382-003-0364-y, 2004."
CO03CHBA,0.08329996,208,Coral,-8.2573,115.5757,surface seawater,d18O,EffectiveMoisture,subannual,1782,1990,"Lombok Strait, Bali, Indonesia","Charles, C. D., Cobb, K., Moore, M. D. and Fairbanks, R. G.: Monsoon–tropical ocean interaction in a network of coral records spanning the 20th century, Marine Geology, 201(1-3), 207–222, doi:10.1016/s0025-3227(03)00217-2, 2003."
CO08GOBE,0.995391705,216,Coral,30.6486,-64.9888,surface seawater,d18O,Temperature,subannual,1782,1998,Bermuda south shore,"Goodkin, N. F., Hughen, K. A., Doney, S. C. and Curry, W. B.: Increased multidecadal variability of the North Atlantic Oscillation since 1781, Nature Geoscience, 1(12), 844–848, doi:10.1038/ngeo352, 2008."
CO94HEAQ,0.990291262,204,Coral,29.4333,34.9667,surface seawater,d18O,Temperature,annual,1788,1992,"Aqaba, Jordan","Heiss, G.A. 1994. Coral reefs in the Red Sea: Growth, production and stable isotopes. GEOMAR Report, 32:1-141."
CO05ASGU,0.083301625,210.17,Coral,13.598,144.836,surface seawater,d18O,Temperature,subannual,1790.04,2000.21,Guam Coral,"Asami, R.: Interannual and decadal variability of the western Pacific sea surface condition for the years 1787–2000: Reconstruction based on stable isotope record from a Guam coral, Journal of Geophysical Research, 110(C5), doi:10.1029/2004jc002555, 2005."
CO14OSPA,0.083301046,215,Coral,7.2859,134.2503,surface seawater,d18O,EffectiveMoisture,subannual,1793.17,2008.17,Palau,"Osborne, M. C., Dunbar, R. B., Mucciarone, D. A., Druffel, E. and Sanchez-Cabeza, J.-A.: A 215-yr coral d18O time series from Palau records dynamics of the West Pacific Warm Pool following the end of the Little Ice Age, Coral Reefs, 33(3), 719–731, doi:10.1007/s00338-014-1146-1, 2014."
CO99KUHO,0.1665301,199.17,Coral,-28.4617,113.7683,surface seawater,d18O,Temperature,subannual,1794.75,1993.92,Houtman Abrolhos Islands,"Kuhnert, H., Paetzold, J., Hatcher, B., Wyrwoll, K.-H., Eisenhauer, A., Collins, L. B., Zhu, Z. R. and Wefer, G.: A 200-year coral stable oxygen isotope record from a high-latitude reef off Western Australia, Coral Reefs, 18(1), 1–12, doi:10.1007/s003380050147, 1999."
CO00COKY,0.994845361,193,Coral,-3.2556,40.1433,surface seawater,d18O,Temperature,annual,1801,1994,Malindi Marine Park,"Cole, J. E.: Tropical Pacific Forcing of Decadal SST Variability in the Western Indian Ocean over the Past Two Centuries, Science, 287(5453), 617–619, doi:10.1126/science.287.5453.617, 2000."
CO96QUVA,0.994219653,172,Coral,-15,167,surface seawater,d18O,Temperature,subannual,1807,1979,"Tangoa Island, Vanuatu","Quinn, T. M., Taylor, F. W. and Crowley, T. J.: A 173 year stable isotope record from a tropical south pacific coral 0, Quaternary Science Reviews, 12(6), 407–418, doi:10.1016/s0277-3791(05)80005-8, 1993."
CO18HECO01A,0.163629749,202.41,Coral,-12.087,96.875,surface seawater,d18O,Temperature,subannual,1808.17,2010.58,Direction Island,"Hennekam, R., Zinke, J., van Sebille, E., ten Have, M., Brummer, G.-J. A. and Reichart, G.-J.: Cocos (Keeling) Corals Reveal 200 Years of Multidecadal Modulation of Southeast Indian Ocean Hydrology by Indonesian Throughflow, Paleoceanography and Paleoclimatology, 33(1), 48–60, doi:10.1002/2017pa003181, 2018."
CO96SWFB,0.99382716,161,Coral,24.9167,-80.75,surface seawater,d18O,EffectiveMoisture,annual,1824,1985,"Lignumvitae Basin, Florida Bay","Swart, P. K., Healy, G. F., Dodge, R. E., Kramer, P., Hudson, J. H., Halley, R. B. and Robblee, M. B.: The stable oxygen and carbon isotopic record from a coral growing in Florida Bay: a 160 year record of climatic and anthropogenic influence, Palaeogeography, Palaeoclimatology, Palaeoecology, 123(1-4), 219–237, doi:10.1016/0031-0182(95)00078-x, 1996."
CO05KUBE,0.083289404,158,Coral,32.467,-64.7,surface seawater,d18O,Temperature,subannual,1825.21,1983.21,"North East Breakers, Bermuda","Kuhnert, H., Crueger, T. and Paetzold, J.: NAO signature in a Bermuda coral Sr/Ca record, Geochemistry, Geophysics, Geosystems, 6(4), n/a–n/a, doi:10.1029/2004gc000786, 2005."
CO04PFRE,0.166500509,163.67,Coral,-21.0333,55.25,surface seawater,d18O,Temperature,subannual,1832,1995.67,"La Reunion, Southwestern Indian Ocean","Pfeiffer, M., Timm, O., Dullo, W.-C. and Podlech, S.: Oceanic forcing of interannual and multidecadal climate variability in the southwestern Indian Ocean: Evidence from a 160 year coral isotopic record (La Reunion, 55°E, 21°S), Paleoceanography, 19(4), n/a–n/a, doi:10.1029/2003pa000964, 2004."
CO00URMA,0.166487069,154.5,Coral,0.933,173,surface seawater,d18O,Temperature,subannual,1840,1994.5,"Maiana Atoll, Republic of Kiribati","Urban, F. E., Cole, J. E. and Overpeck, J. T.: Influence of mean climate change on climate variability from a 155-year tropical Pacific coral record, Nature, 407(6807), 989–993, doi:10.1038/35039597, 2000."
CO12GOVA,0.083291267,165,Coral,-15.94,166.04,surface seawater,d18O,EffectiveMoisture,subannual,1842.625,2007.625,Vanuatu,"Gorman, M. K., Quinn, T. M., Taylor, F. W., Partin, J. W., Cabioch, G., Austin, J. A., Pelletier, B., Ballu, V., Maes, C. and Saustrup, S.: A coral-based reconstruction of sea surface salinity at Sabine Bank, Vanuatu from 1842 to 2007 CE, Paleoceanography, 27(3), n/a–n/a, doi:10.1029/2012pa002302, 2012."
CO97CHSY,0.083290359,148.59,Coral,-4.6062,55.4244,surface seawater,d18O,Temperature,subannual,1846.54,1995.13,"Beau Vallon Bay, Mahe Island, Republic of the Seychelles","Charles, C. D.: Interaction Between the ENSO and the Asian Monsoon in a Coral Record of Tropical Climate, Science, 277(5328), 925–928, doi:10.1126/science.277.5328.925, 1997."
CO14ZIHO,0.993865031,162,Coral,-28.4589,113.749,surface seawater,d18O,Temperature,annual,1848,2010,Houtman Abrolhos,"Zinke, J., Rountrey, A., Feng, M., Xie, S.-P., Dissard, D., Rankenburg, K., Lough, J. M. and McCulloch, M. T.: Corals record long-term Leeuwin current variability including Ningaloo Nino/Nina since 1795, Nature Communications, 5(1), doi:10.1038/ncomms4607, 2014."
CO98BOFP,0.992805755,138,Coral,-17.5,-149.8333,surface seawater,d18O,Temperature,subannual,1852.5,1990.5,"Moorea, French Polynesia","Boiseau, M., Juillet-Leclerc, A., Yiou, P., Salvat, B., Isdale, P. and Guillaume, M.: Atmospheric and oceanic evidences of El Nino-Southern Oscillation events in the south central Pacific Ocean from coral stable isotopic records over the last 137 years, Paleoceanography, 13(6), 671–685, doi:10.1029/98pa02502, 1998."
CO13DESC01A,0.993710692,158,Coral,19.287,110.656,surface seawater,d18O,EffectiveMoisture,annual,1853,2011,Hainan Island,"Deng, W., Wei, G., Xie, L., Ke, T., Wang, Z., Zeng, T. and Liu, Y.: Variations in the Pacific Decadal Oscillation since 1853 in a coral record from the northern South China Sea, Journal of Geophysical Research: Oceans, 118(5), 2358–2366, doi:10.1002/jgrc.20180, 2013."
CO00DRBE,2.782608696,64,Coral,32.3,-64.7,surface seawater,d18O,Temperature,annual,1856,1920,"Northeast Breakers, Bermuda","Draschba, S., Paetzold, J. and Wefer, G.: North Atlantic climate variability since AD 1350 recorded in d 18 O and skeletal density of Bermuda corals, International Journal of Earth Sciences, 88(4), 733–741, doi:10.1007/s005310050301, 2000."
CO08ABSU,0.083285629,139.67,Coral,-0.13,98.52,surface seawater,d18O,Temperature,subannual,1858.29,1997.96,"Mantawai Islands, West Sumatra, Indonesia","Abram, N. J., Gagan, M. K., Cole, J. E., Hantoro, W. S. and Mudelsee, M.: Recent intensification of tropical climate variability in the Indian Ocean, Nature Geoscience, 1(12), 849–853, doi:10.1038/ngeo357, 2008."
CO03CHBU,0.083278061,130.58,Coral,-1.5,124.833,surface seawater,d18O,EffectiveMoisture,subannual,1860,1990.58,Bunaken Island,"Charles, C. D., Cobb, K., Moore, M. D. and Fairbanks, R. G.: Monsoon–tropical ocean interaction in a network of coral records spanning the 20th century, Marine Geology, 201(1-3), 207–222, doi:10.1016/s0025-3227(03)00217-2, 2003."
CO06QUNG,0.083275752,130.16,Coral,-4.1916,151.9772,surface seawater,d18O,Temperature,subannual,1867.38,1997.54,Rabaul,"Quinn, T. M., Taylor, F. W. and Crowley, T. J.: Coral-based climate variability in the Western Pacific Warm Pool since 1867, Journal of Geophysical Research, 111(C11), doi:10.1029/2005jc003243, 2006."
CO14WUCL,0.083293051,82.71,Coral,10.3,-109.22,surface seawater,d18O,Temperature,subannual,1874.08,1956.79,Clipperton Atoll,"Wu, H. C., Moreau, M., Linsley, B. K., Schrag, D. P. and Correge, T.: Investigation of sea surface temperature changes from replicated coral Sr/Ca variations in the eastern equatorial Pacific (Clipperton Atoll) since 1874, Palaeogeography, Palaeoclimatology, Palaeoecology, 412, 208–222, doi:10.1016/j.palaeo.2014.07.039, 2014."
CO00KUNI,0.166436782,115.84,Coral,-21.905,113.965,surface seawater,d18O,Temperature,subannual,1879.08,1994.92,"Ningaloo Reef, West Australia","Kuhnert, H., Paetzold, J., Wyrwoll, K.-H. and Wefer, G.: Monitoring climate variability over the past 116 years in coral oxygen isotopes from Ningaloo Reef, Western Australia, International Journal of Earth Sciences, 88(4), 725–732, doi:10.1007/s005310050300, 2000."
CO01TUNG,0.249444444,112.25,Coral,-5.217,145.817,surface seawater,d18O,Temperature,subannual,1880.792,1993.042,"Deplik Tabat Reef, Madang Lagoon","Tudhope, A. W.: Variability in the El Nino-Southern Oscillation Through a Glacial-Interglacial Cycle, Science, 291(5508), 1511–1517, doi:10.1126/science.1057969, 2001."
CO14ZIMG,0.991150442,112,Coral,-23.3572,43.6195,surface seawater,d18O,Temperature,annual,1882,1994,"Tulear Reef, SW Madagascar","Zinke, J., Loveday, B. R., Reason, C. J. C., Dullo, W.-C. and Kroon, D.: Madagascar corals track sea surface temperature variability in the Agulhas Current core region over the past 334 years, Scientific Reports, 4(1), doi:10.1038/srep04393, 2014."
CO18DATO01A,0.139119839,121.3125,Coral,-20.2792,-174.6423,surface seawater,d18O,Temperature,subannual,1883.583333,2004.895833,Fonoifua Island,"Dassie, E. P., Hasson, A., Khodri, M., Lebas, N. and Linsley, B. K.: Spatiotemporal Variability of the South Pacific Convergence Zone Fresh Pool Eastern Front from Coral-Derived Surface Salinity Data, Journal of Climate, 31(8), 3265–3288, doi:10.1175/jcli-d-17-0071.1, 2018."
CO01TUNG,0.249425287,108.5,Coral,-5.217,145.817,surface seawater,d18O,Temperature,subannual,1884.542,1993.042,"Deplik Tabat Reef, Madang Lagoon","Tudhope, A. W.: Variability in the El Nino-Southern Oscillation Through a Glacial-Interglacial Cycle, Science, 291(5508), 1511–1517, doi:10.1126/science.1057969, 2001."
CO11NUPM,0.083266518,112.16,Coral,5.87,-162.13,surface seawater,d18O,Temperature,subannual,1886.13,1998.29,Palmyra,"Nurhati, I. S., Cobb, K. M. and Di Lorenzo, E.: Decadal-Scale SST and Salinity Variations in the Central Tropical Pacific: Signatures of Natural and Anthropogenic Climate Change, Journal of Climate, 24(13), 3294–3308, doi:10.1175/2011jcli3852.1, 2011."
CO09NAKY,0.083393372,115.75,Coral,-3.2,40.1,surface seawater,d18O,Temperature,subannual,1886.96,2002.71,Malindi,"Nakamura, N., Kayanne, H., Iijima, H., McClanahan, T. R., Behera, S. K. and Yamagata, T.: Mode shift in the Indian Ocean climate under global warming stress, Geophysical Research Letters, 36(23), doi:10.1029/2009gl040590, 2009."
CO18RELC01A,0.083278036,125.5,Coral,19.7,-80.06,surface seawater,d18O,Temperature,subannual,1887.04,2012.54,Little Cayman,"Von Reumont, J., Hetzinger, S., Garbe-Schoenberg, D., Manfrino, C. and Dullo, C.: Tracking Interannual- to Multidecadal-Scale Climate Variability in the Atlantic Warm Pool Using Central Caribbean Coral Data, Paleoceanography and Paleoclimatology, 33(4), 395–411, doi:10.1002/2018pa003321, 2018."
CO99GUMI,0.24939759,103.5,Coral,-0.533,166.9283,surface seawater,d18O,Temperature,subannual,1891.75,1995.25,Nauru,"Guilderson, T. P. and Schrag, D. P.: Reliability of coral isotope records from the Western Pacific Warm Pool: A comparison using age-optimized records, Paleoceanography, 14(4), 457–464, doi:10.1029/1999pa900024, 1999."
CO99LICL,0.08326412,100.25,Coral,10.2773,-109.2131,surface seawater,d18O,Temperature,subannual,1893.79,1994.04,Clipperton Atoll,"Linsley, B. K., Messier, R. G. and Dunbar, R. B.: Assessing between-colony oxygen isotope variability in the coral Porites lobata at Clipperton Atoll, Coral Reefs, 18(1), 13–27, doi:10.1007/s003380050148, 1999."
CO93COTW,0.083261058,96,Coral,1.4167,173.0333,surface seawater,d18O,EffectiveMoisture,subannual,1894,1990,"Tarawa Atoll, Republic of Kiribati","Cole, J. E., Fairbanks, R. G. and Shen, G. T.: Recent Variability in the Southern Oscillation: Isotopic Results from a Tarawa Atoll Coral, Science, 260(5115), 1790–1793, doi:10.1126/science.260.5115.1790, 1993."
CO10HEIG,0.085829187,103.51,Coral,16.2,-61.49,surface seawater,d18O,Temperature,subannual,1895.7,1999.21,Guadeloupe,"Hetzinger, S., Pfeiffer, M., Dullo, W.-C., Garbe-Schoenberg, D. and Halfar, J.: Rapid 20th century warming in the Caribbean and impact of remote forcing on climate in the northern tropical Atlantic as recorded in a Guadeloupe coral, Palaeogeography, Palaeoclimatology, Palaeoecology, 296(1-2), 111–124, doi:10.1016/j.palaeo.2010.06.019, 2010."
CO99SWFB,0.989795918,97,Coral,24.9167,-80.75,surface seawater,d18O,EffectiveMoisture,subannual,1899,1996,"Lignumvitae Basin, Florida Bay","Swart, P. K., Healy, G., Greer, L., Lutz, M., Saied, A., Anderegg, D., Dodge, R. E. and Rudnick, D.: The Use of Proxy Chemical Records in Coral Skeletons to Ascertain Past Environmental Conditions in Florida Bay, Estuaries, 22(2), 384, doi:10.2307/1353206, 1999."
CO14OSPA,0.083269672,109,Coral,7.2859,134.2503,surface seawater,d18O,EffectiveMoisture,subannual,1899.17,2008.17,Palau,"Osborne, M. C., Dunbar, R. B., Mucciarone, D. A., Druffel, E. and Sanchez-Cabeza, J.-A.: A 215-yr coral d18O time series from Palau records dynamics of the West Pacific Warm Pool following the end of the Little Ice Age, Coral Reefs, 33(3), 719–731, doi:10.1007/s00338-014-1146-1, 2014."
CO14ZIMG,0.988888889,89,Coral,-23.3572,43.6195,surface seawater,d18O,Temperature,annual,1905,1994,"Tulear Reef, SW Madagascar","Zinke, J., Loveday, B. R., Reason, C. J. C., Dullo, W.-C. and Kroon, D.: Madagascar corals track sea surface temperature variability in the Agulhas Current core region over the past 334 years, Scientific Reports, 4(1), doi:10.1038/srep04393, 2014."
CO04MGNG,0.988636364,87,Coral,-3.6206,143.6819,surface seawater,d18O,EffectiveMoisture,annual,1910,1997,Papua New Guinea,"McGregor, H. V. and Gagan, M. K.: Western Pacific coral d18O records of anomalous Holocene variability in the El Nino-Southern Oscillation, Geophysical Research Letters, 31(11), n/a–n/a, doi:10.1029/2004gl019972, 2004."
CO17WUBO1A,0.166665888,35.6665,Coral,12.222,-68.3998,surface seawater,d18O,Temperature,subannual,1913.9167,1949.5832,Northwestern shore,"Wu, H. C., Felis, T., Scholz, D., Giry, C., Koelling, M., Jochum, K. P. and Scheffers, S. R.: Changes to Yucatan Peninsula precipitation associated with salinity and temperature extremes of the Caribbean Sea during the Maya civilization collapse, Scientific Reports, 7(1), doi:10.1038/s41598-017-15942-0, 2017."
CO14CATI,0.083256244,90,Coral,-10.2,123.5167,surface seawater,d18O,Temperature,subannual,1914.46,2004.46,"Ombai Strait, Timor Island","Cahyarini, S. Y., Pfeiffer, M., Nurhati, I. S., Aldrian, E., Dullo, W.-C. and Hetzinger, S.: Twentieth century sea surface temperature and salinity variations at Timor inferred from paired coral d18O and Sr/Ca measurements, Journal of Geophysical Research: Oceans, 119(7), 4593–4604, doi:10.1002/2013jc009594, 2014."
CO13HENG,0.087491012,28.084615,Coral,-10.6907,152.8115,surface seawater,d18O,EffectiveMoisture,subannual,1916.925,1945.009615,"Misima Island, Papua New Guinea","Hereid, K. A., Quinn, T. M., Taylor, F. W., Shen, C.-C., Lawrence Edwards, R. and Cheng, H.: Coral record of reduced El Nino activity in the early 15th to middle 17th centuries, Geology, 41(1), 51–54, doi:10.1130/g33510.1, 2012."
CO08HEVE,0.083253589,87,Coral,11.77,-66.75,surface seawater,d18O,Temperature,subannual,1917.79,2004.79,"Cayo Sal, Los Roques Archipelago, Venezuela","Hetzinger, S., Pfeiffer, M., Dullo, W.-C., Keenlyside, N., Latif, M. and Zinke, J.: Caribbean coral tracks Atlantic Multidecadal Oscillation and past hurricane activity, Geology, 36(1), 11, doi:10.1130/g24321a.1, 2008."
CO13CAHN,0.132464678,84.38,Coral,16.0644,-86.9508,surface seawater,d18O,Temperature,subannual,1922.09,2006.47,"Diamond Caye, Utila, Honduras","Carilli, J. E., Charles, C. D., Garren, M., McField, M. and Norris, R. D.: Baseline shifts in coral skeletal oxygen isotopic composition: a signature of symbiont shuffling?, Coral Reefs, 32(2), 559–571, doi:10.1007/s00338-012-1004-y, 2013."
CO95TUNG,0.249094203,68.75,Coral,-5.22,145.82,surface seawater,d18O,EffectiveMoisture,subannual,1922.542,1991.292,"Madang, Papua New Guinea","Tudhope, A. W., Shimmield, G. B., Chilcott, C. P., Jebb, M., Fallick, A. E. and Dalgleish, A. N.: Recent changes in climate in the far western equatorial Pacific and their relationship to the Southern Oscillation; oxygen isotope records from massive corals, Papua New Guinea, Earth and Planetary Science Letters, 136(3-4), 575–590, doi:10.1016/0012-821x(95)00156-7, 1995."
CO17MUMA,0.16829703,84.99,Coral,-5.382,117.914,surface seawater,d18O,EffectiveMoisture,subannual,1926.95,2011.94,Doangdoangan Besar,"Murty, S. A., Goodkin, N. F., Halide, H., Natawidjaja, D., Suwargadi, B., Suprihanto, I., Prayudi, D., Switzer, A. D. and Gordon, A. L.: Climatic Influences on Southern Makassar Strait Salinity Over the Past Century, Geophysical Research Letters, 44(23), 11,967–11,975, doi:10.1002/2017gl075504, 2017."
CO04KIVA,0.067072403,63.92,Coral,-15.7,167.2,surface seawater,d18O,Temperature,subannual,1928.54,1992.46,"Malo Channel, Espiritu Santo Island, Vanuatu","Kilbourne, K. H., Quinn, T. M., Taylor, F. W., Delcroix, T. and Gouriou, Y.: El Nino-Southern Oscillation-related salinity variations recorded in the skeletal geochemistry of aPoritescoral from Espiritu Santo, Vanuatu, Paleoceanography, 19(4), n/a–n/a, doi:10.1029/2004pa001033, 2004."
CO06MOPE,0.083238636,73.25,Coral,16.75,-22.8883,surface seawater,d18O,EffectiveMoisture,subannual,1928.96,2002.21,"Pedra de Lume, Cape Verde Islands","Moses, C. S., Swart, P. K. and Rosenheim, B. E.: Evidence of multidecadal salinity variability in the eastern tropical North Atlantic, Paleoceanography, 21(3), doi:10.1029/2005pa001257, 2006."
CO06MOTO,0.983050847,58,Coral,11.17,-60.85,surface seawater,d18O,EffectiveMoisture,subannual,1932,1990,"Buccoo Reef, Tobago",NA
CO92SHPU,0.248663102,46.5,Coral,-0.6667,-89.1667,surface seawater,d18O,Temperature,subannual,1936,1982.5,"Punta pitt, Isla San Cristobal, Galapagos island, Ecuador","Shen, G. T., Cole, J. E., Lea, D. W., Linn, L. J., McConnaughey, T. A. and Fairbanks, R. G.: Surface ocean variability at Galapagos from 1936-1982: Calibration of geochemical tracers in corals, Paleoceanography, 7(5), 563–588, doi:10.1029/92pa01825, 1992."
CO98EVXM,0.083207519,55.333,Coral,1.6792,-157.2473,surface seawater,d18O,Temperature,subannual,1938.292,1993.625,Kiritimati,"Evans, M. N., Fairbanks, R. G. and Rubenstone, J. L.: A proxy index of ENSO teleconnections, Nature, 394(6695), 732–733, doi:10.1038/29424, 1998."
CO98SWPR,0.981481481,53,Coral,1.6667,7.5833,surface seawater,d18O,EffectiveMoisture,annual,1939,1992,"Principe, Gulf of Guinea","Swart, P. K., White, K. S., Enfield, D., Dodge, R. E. and Milne, P.: Stable oxygen isotopic composition of corals from the Gulf of Guinea as indicators of periods of extreme precipitation conditions in the sub-Sahara, Journal of Geophysical Research: Oceans, 103(C12), 27885–27891, doi:10.1029/98jc02404, 1998."
CO04BAFI,0.983606557,60,Coral,-16.8167,179.2333,surface seawater,d18O,Temperature,annual,1940,2000,"Savusavu Bay, Fiji","Bagnato, S., Linsley, B. K., Howe, S. S., Wellington, G. M. and Salinger, J.: Evaluating the use of the massive coralDiploastrea helioporafor paleoclimate reconstruction, Paleoceanography, 19(1), n/a–n/a, doi:10.1029/2003pa000935, 2004."
CO13CAHN,0.131163708,66.5,Coral,16.0644,-86.9508,surface seawater,d18O,Temperature,subannual,1940,2006.5,"Diamond Caye, Utila, Honduras","Carilli, J. E., Charles, C. D., Garren, M., McField, M. and Norris, R. D.: Baseline shifts in coral skeletal oxygen isotopic composition: a signature of symbiont shuffling?, Coral Reefs, 32(2), 559–571, doi:10.1007/s00338-012-1004-y, 2013."
CO13CABL,0.144581498,65.64,Coral,16.1292,-88.2497,surface seawater,d18O,Temperature,subannual,1940.37,2006.01,Belize,"Carilli, J. E., Charles, C. D., Garren, M., McField, M. and Norris, R. D.: Baseline shifts in coral skeletal oxygen isotopic composition: a signature of symbiont shuffling?, Coral Reefs, 32(2), 559–571, doi:10.1007/s00338-012-1004-y, 2013."
CO98CHPI,0.305147059,41.5,Coral,22.6,70,surface seawater,d18O,Temperature,subannual,1948,1989.5,Pirotan Island,"Chakraborty, S., and R. Ramesh. 1998. Stable isotope variations in a coral (Favia speciosa) from the Gulf of Kutch during 1948-1989 AD: Environmental implications. Proceedings of the Indian Academy of Science (Earth and Planetary Sciences) 107(4):331-341."
CO13COTB,0.083096591,29.25,Coral,3.9062,-159.2859,surface seawater,d18O,Temperature,subannual,1949.54,1978.79,Fanning Island (composite),"Cobb, K. M., Charles, C. D., Cheng, H. and Edwards, R. L.: El Nino/Southern Oscillation and tropical Pacific climate during the last millennium, Nature, 424(6946), 271–276, doi:10.1038/nature01779, 2003."
CO17LITW01A,0.083205128,51.92,Coral,21.9564,120.762,surface seawater,d18O,Temperature,subannual,1953,2004.92,Nanwan Bay,"Li, X., Liu, Y., Hsin, Y.-C., Liu, W., Shi, Z., Chiang, H.-W. and Shen, C.-C.: Coral record of variability in the upstream Kuroshio Current during 1953-2004, Journal of Geophysical Research: Oceans, 122(8), 6936–6946, doi:10.1002/2017jc012944, 2017."
CO17RAPA,0.083223966,58.34,Coral,18.54,122.15,surface seawater,d18O,EffectiveMoisture,subannual,1954.04,2012.38,Palaui Island,"Ramos, R. D., Goodkin, N. F., Siringan, F. P. and Hughen, K. A.: Diploastrea heliopora Sr/Ca and d18O records from northeast Luzon, Philippines: An assessment of interspecies coral proxy calibrations and climate controls of sea surface temperature and salinity, Paleoceanography, 32(4), 424–438, doi:10.1002/2017pa003098, 2017."
CO17RAPA,0.083223966,58.34,Coral,18.54,122.15,surface seawater,d18O,EffectiveMoisture,subannual,1954.04,2012.38,Palaui Island,"Ramos, R. D., Goodkin, N. F., Siringan, F. P. and Hughen, K. A.: Diploastrea heliopora Sr/Ca and d18O records from northeast Luzon, Philippines: An assessment of interspecies coral proxy calibrations and climate controls of sea surface temperature and salinity, Paleoceanography, 32(4), 424–438, doi:10.1002/2017pa003098, 2017."
CO15ABSP,0.083170254,42.5,Coral,-3.1833,100.5167,surface seawater,d18O,Temperature,subannual,1959.041667,2001.541667,Taitaitanopo Island,"Abram, N. J., Dixon, B. C., Rosevear, M. G., Plunkett, B., Gagan, M. K., Hantoro, W. S. and Phipps, S. J.: Optimized coral reconstructions of the Indian Ocean Dipole: An assessment of location and length considerations, Paleoceanography, 30(10), 1391–1405, doi:10.1002/2015pa002810, 2015."
CO14CABT,0.166123779,51,Coral,3.0731,172.7469,surface seawater,d18O,Temperature,subannual,1959.374,2010.374,"Butaritari Atoll, Gilbert Islands","Carilli, J. E., McGregor, H. V., Gaudry, J. J., Donner, S. D., Gagan, M. K., Stevenson, S., Wong, H. and Fink, D.: Equatorial Pacific coral geochemical records show recent weakening of the Walker Circulation, Paleoceanography, 29(11), 1031–1045, doi:10.1002/2014pa002683, 2014."
CO04PFCH,0.165865385,34.5,Coral,-5.43,71.77,surface seawater,d18O,EffectiveMoisture,subannual,1961.125,1995.625,Peros Banhos Atoll,"Pfeiffer, M., Dullo, W.-C. and Eisenhauer, A.: Variability of the Intertropical Convergence Zone recorded in coral isotopic records from the central indian Ocean (Chagos Archipelago), Quaternary Research, 61(3), 245–255, doi:10.1016/j.yqres.2004.02.009, 2004."
CO09NUTB,0.083109453,33.41,Coral,3.9062,-159.2859,surface seawater,d18O,EffectiveMoisture,subannual,1972.13,2005.54,Fanning Island,"Nurhati, I. S., Cobb, K. M., Charles, C. D. and Dunbar, R. B.: Late 20th century warming and freshening in the central tropical Pacific, Geophysical Research Letters, 36(21), doi:10.1029/2009gl040270, 2009."
CO18HECO01B,0.085923077,22.34,Coral,-12.087,96.875,surface seawater,d18O,Temperature,subannual,1988.58,2010.92,Direction Island,"Hennekam, R., Zinke, J., van Sebille, E., ten Have, M., Brummer, G.-J. A. and Reichart, G.-J.: Cocos (Keeling) Corals Reveal 200 Years of Multidecadal Modulation of Southeast Indian Ocean Hydrology by Indonesian Throughflow, Paleoceanography and Paleoclimatology, 33(1), 48–60, doi:10.1002/2017pa003181, 2018."
